architecture,architect,year,city,country,continent,latitude,longitude
Villa_Savoye,Le Corbusier,1931,Poissy,France,Europe,48.92457252,2.028344771
Chapelle_Notre-Dame_du_Haut,Le Corbusier,1955,Ronchamp,France,Europe,47.7046385,6.620936017
Barcelona_Pavilion,Ludwig Mies van der Rohe,1929,Barcelona,Spain,Europe,41.37076206,2.150194984
Centre_Pompidou,"Richard Rogers, Renzo Piano",1977,Paris,France,Europe,48.86074786,2.352244998
S.C.Johnson_&_Son_Headquarters,Frank Lloyd Wright,1939,"Racine, WI",United States,North America,42.72910708,-87.79109078
Farnsworth_House,Ludwig Mies van der Rohe,1951,"Kendall County, IL",United States,North America,41.63523606,-88.53552287
Salk_Institute,Louis I. Kahn,1960,"La Jolla, CA",United States,North America,32.88762573,-117.2452891
La_Maison_de_Verre,"Pierre Chareau, Bernard Bijovet",1932,Paris,France,Europe,48.85390431,2.328422798
Couvent_Sainte-Marie_de_La_Tourette,Le Corbusier,1957,Éveux,France,Europe,45.81955408,4.62275269
TWA_Flight_Center,Eero Saarinen,1962,"New York City, NY",United States,North America,40.64590291,-73.7776757
Berliner_Philhamonie,"Hans Scharoun, Edgar Wisniewski",1882,Berlin,Germany,Europe,52.51020818,13.36945696
Guggenheim_Museum_Bilbao,Frank Gehry,1997,"Bilbo, Bizkaia",Spain,Europe,43.26885867,-2.933968887
Parc_de_la_Villette,Bernard Tschumi ,1983,"Jean Jaurès, Paris",France,Europe,48.8939829,2.390292185
The_Woodland_Cemetery,Sigurd Lewerentz,1940,"Sockenvägen, Stockholm",Sweden,Europe,59.27135651,18.10268633
Seagram_Building,"Ludwig Mies van der Rohe, Philip Johnson",1958,"New York City, NY",United States,North America,40.75845847,-73.97189919
Solomon_R.Guggenheim_Museum,Frank Lloyd Wright,1939,"New York City, NY",United States,North America,40.78318267,-73.95891696
The_Eames_House,Charles Eames，Ray Eames,1949,"Los Angeles, CA",United States,North America,34.03626738,-118.5212887
Leicester_University_Engineering_Building,"James Gowan, James Stirling",1959,Leicester,United Kingdom,Europe,52.62028545,-1.123770446
Casa_del_Fascio,Giuseppe Terragni,1936,Piazza del Popolo,Italy,Europe,45.81249979,9.085946354
Unité_d'Habitation,Le Corbusier,1952,Marseille,France,Europe,43.26157076,5.396746213
Habitat'67,Moshe Safdie,1967,"Montréal, QC",Canada,North America,45.50004214,-73.54368052
Kimbell_Art_Museum,Louis I. Kahn,1936,"Fort Worth, TX",United States,North America,32.74882134,-97.36494226
Schroderhuis,Gerrit Rietveld,1924,3583 EP Utrecht,Netherlands,Europe,52.08545343,5.147544569
Nakagin_Capsule_Tower,Kisho Kurokawa,1972,"Ginza, Chuo City, Tokyo",Japan,Asia,35.66583616,139.7635681
Postsparkasse,Otto Wagner,1905,Wien,Austria,Europe,48.21011037,16.38118244
Casa_Malaparte,Adalberto Libera,1937,Metropolitan City of Naples,Italy,Europe,40.54717339,14.25910578
Sydney_Opera_House,Jørn Utzon,1973,Sydney NSW 2000,Australia,Australia,-33.85657946,151.215286
Rudolph_Hall_(Yale_Art_and_Architecture_Building),Paul Rudolph,1963,"New Haven, CT",United States,North America,41.30895576,-72.93194388
Phillips_Exeter_Academy_Library,Louis I. Kahn,1972,"Exeter, NH",United States,North America,42.98117463,-70.95179414
AEG_Turbine_Factory,Peter Behrens,1909,Berlin,Germany,Europe,52.52815549,13.32457038
Frederick_C._Robie_House,Frank Lloyd Wright,1909,"Chicago, IL",United States,North America,41.78991377,-87.59596596
Schindler_House,Rudolph Schindler,1922,"West Hollywood, CA",United States,North America,34.08668395,-118.3721164
National_Congress_of_Brazil,Oscar Niemeyer,1826,"Poderes, Brasília",United States,North America,-15.7994538,-47.8641629
Bauhaus_Dessau,Walter Gropius,1919,Dessau-Roßlau,Germany,Europe,51.83903919,12.22729657
Hongkong_&_Shanghai_Bank_Headquarters（HSBC）,Foster and Partners,1983,"Central, Hong Kong",China,Asia,22.28042074,114.1594401
Glasgow_School_of_Art,Charles Rennie Mackintosh,1845,Glasgow G3 6RQ,United Kingdom,Europe,55.86632157,-4.263779132
Villa_Mairea,"Alvar Aalto, Aino Aalto",1939,"Pikkukoivukuja, Noormarkku",Finland,Europe,61.59749494,21.87456523
The_Assembly,Le Corbusier,1962,Chandigarh,India,Asia,30.76131547,76.80315194
Stockholm_Public_Library,Gunnar Asplund,1928,Stockholm,Sweden,Europe,59.34360769,18.05511988
Yoyogi_National_Olympic_Gymnasium,Kenzo Tange,1964,"Shibuya City, Tokyo",Japan,Asia,36.18290224,139.6646217
Sendai_Mediatheque,"Toyo Ito, Mutsurō Sasaki",2000,"Aoba Ward, Sendai",Japan,Asia,38.265559,140.8656579
Einstein_Tower,Erich Mendelsohn,1921,Potsdam,Germany,Europe,52.37906246,13.06382641
Lever_House,"Gordon Bunshaft, Natalie de Blois",1952,"New York City, NY",United States,North America,52.49756334,13.42836421
Diamond_Ranch_High_School,Thom Mayne,1997,"Pomona, CA",United States,North America,34.02206329,-117.7784425
Glass_House,Philip Johnson,1949,"New Canaan, CT",United States,North America,41.14665202,-73.49682972
Ford_Foundation_Headquarters,Roche-Dinkeloo,1963,"New York City, NY",United States,North America,40.74999847,-73.97119459
Olympic_Stadium_Munich,"Frei Otto, Günter Behnisch, Fritz Auer, Carlo Weber, Hermann Peltz",1972,München,Germany,Europe,48.17331055,11.54664124
Gehry_House,Frank Gehry,1991,"Santa Monica, CA",United States,North America,34.03543883,-118.4846767
lgualada_Cemetery,Enric Miralles,1984,"Igualada, Barcelona",United States,North America,41.59244923,1.637269856
Crown_Hall,Ludwig Mies van der Rohe,1956,"Chicago, IL",United States,North America,41.83337456,-87.62726427
Y_Vanna_Venturi_House,Robert Venturi,1964,"Philadelphia, PA",United States,North America,40.07087307,-75.20804729
Lovell_Health_House,Richard Neutra,1929,"Los Angeles, CA",United States,North America,34.1184047,-118.2877934
Tugendhat_House,Ludwig Mies van der Rohe,1930,"Černopolní, Brno",Czech Republic,Europe,49.20733394,16.61613786
Baker_Hall_MIT,Alvar Aalto,1948,"Cambridge, MA",United States,North America,42.35691474,-71.09567274
Casa_Luis_Barragán,Luis Barragán,1947,"Miguel Hidalgo district, Mexico City",Mexico,North America,19.41142948,-99.19233234
The_Beinecke_Rare_Book_&_Manuscript_Library,Gordon Bunshaft,1963,"New Haven, CT",United States,North America,41.31165676,-72.92736311
Museu_de_Arte_de_Sāo_Paulo,Lina Bo Bardi,1947,São Paulo,United States,North America,-23.56150249,-46.65594628
Brion_Family_Tomb,Carlo Scarpa,1978,"Via Brioni, Altivole TV",Italy,Europe,45.75129969,11.91374368
Bangladesh_National_Assembly_Building,"Louis Kahn, Muzharul Islam",1982,Dhaka,Bangladesh,ASIA,23.76267219,90.37855964
Neue_Staatsgalerie,"James Stirling, Michael Wilford and Associates",1984,Stuttgart,Germany,Europe,48.7802175,9.186570569
National_Museum_of_Roman_Art,José Rafael Moneo Vallés,1986,"Mérida, Badajoz",Spain,Europe,38.91713838,-6.339441485
Maison_à_Bordeaux,Rem Koolhaas,1998,Floirac,France,Europe,44.82536131,-0.5171067871
Casa_Milà,Antoni Gaudí,1912,Barcelona,Spain,Europe,41.39547303,2.161902398
Säynä¤tsalo_Town_Hall,Alvar Aalto,1949,Säynätsalo,Finland,Europe,62.14035999,25.76931878
Lloyd's_of_London,Richard Rogers and Partners,1978,London,United Kingdom,Europe,51.52205795,-0.08458995184
Institut_du_Monde_Arabe,"Gilbert Lèzenes, Pierre Soria",1980,Paris,France,Europe,48.84910218,2.357145468
Parc_de_la_Villette,Bernard Tschumi,1985,Paris,France,Europe,48.89403228,2.390270727
Jewish_Museum_Berlin,Daniel Libeskind,2001,Berlin,Germany,Europe,52.50250088,13.39535034
Hillside_Terrace_ComplexI-V,Fumihiko Maki,1992,"Shibuya City, Tokyo ",Japan,Asia,35.64760248,139.7014638
Smith_House,Richard Meier,1967,"Darien, CT",United States,North America,41.06209893,-73.45531044
New_National_Gallery,Mies Van der Rohe,1968,Berlin,Germany,Europe,52.50709906,13.36759327
Castelvecchio_Museum,Carlo Scarpa,1356,Verona VR,Italy,Europe,45.43993325,10.98780696
Piscinas_de_Marés,Álvaro Siza,1966,Leça da Palmeira,Portugal,Europe,41.19297154,-8.707489273
Michaelerplatz_House_(Looshaus),Adolf Loos,1911,1010 Wien,Austria,Europe,48.20847703,16.3667432
Rusakov_Workers'_Club,Konstantin Melnikov,1928,Moscow,United States,North America,55.79139497,37.68751536
Mill_Owners'Association_Building,Le Corbusier,1951,Gujarat,India,ASIA,23.03267881,72.5709023
Stahl_House,Pierre Koenig,1960,"West Hollywood, CA",United States,North America,34.10078192,-118.3703326
The_Breuer_Building_(Whitney_Museum_of_American_Art),"Marcel Breuer, Renzo Piano",1981,"New York City, NY",United States,North America,40.73980716,-74.0088629
Rooftop_Remodeling_Falkestrasse,COOP HIMMELB(L)AU,1988,1010 Wien,Austria,Europe,48.20858793,16.38082626
Larkin_Company_Administration_Building,Frank Lloyd Wright ,1903,"Buffalo, NY",United States,North America,42.87672079,-78.8521345
Fiat_Works (Lingotto Parcheggio),Giacomo Matté-Trucco,1923,Torino TO,Italy,Europe,45.03291121,7.662848688
Villa_Müller,Adolf Loos,1930,Prague,Czech Republic,Europe,50.09262009,14.37839788
Van_Nelle_Factory,"Leendert van der Vlugt, Johannes Brinkman",1931,Rotterdam,Netherlands,Europe,51.92327156,4.434134958
Dymaxion_House,Buckminster Fuller,1933,"Dearborn, MI",United States,North America,42.30367346,-83.23417372
Querini_Stampalia_Renovation,Carlo Scarpa,1949,Venezia VE,Italy,Europe,45.4365945,12.34113714
House_VI,Peter Eisenman,1975,"Cornwall, CT",United States,North America,41.83290684,-73.32142354
Beurs_van_Berlage,Beurs van Berlage,1903,Amsterdam,Netherlands,Europe,52.37525212,4.896278587
Gamble_House,"Henry Mather Greene, Charles Sumner Greene",1908,"Pasadena, CA",United States,North America,34.15182375,-118.1609311
Lovell_Beach_House,Rudolph Schindler,1926,"Newport Beach, CA",United States,North America,33.60617316,-117.9176351
Turin_Exhibition_Hall,Massimiliano Fuksas,1949,Torino TO,Italy,Europe,45.07742872,7.682805699
"Municipal_Orphanage,Amsterdam",Aldo van Eyck,1960,Amsterdam,Netherlands,Europe,52.34097283,4.855760827
Carpenter_Center_for_the_Visual_Arts,"Josep Lluís Sert, Le Corbusier",1963,"Cambridge, MA",United States,North America,42.3738752,-71.11450009
Free_University_of_Berlin,"Candilis, Josic, Woods and Schiedhelm",1948,Berlin,Germany,Europe,52.45446832,13.29346607
Bagsverd_Church,Jørn Utzon,1976,Bagsværd,Denmark,Europe,55.76192879,12.4439722
SESC_Pompéia,Lina Bo Bardi,1986,São Paulo,Brazil,South America,-23.52589467,-46.68332257
Heidi_Weber_House,Le Corbusier,1967,Zürich,Switzerland,Europe,47.3562638,8.550781966
Gallaratese_Il_Apartments,Aldo Rossi & Carlo Aymonino,1972,Milano,Italy,Europe,45.4992342,9.100900195
Centraal_Beheer_Building,Herman Hertzberger,1972,NB Apeldoorn,Netherlands,Europe,52.20969992,5.960990714
Vitra_Fire_Station,Zaha Hadid,1993,Weil am Rhein,Germany,Europe,47.60049679,7.614858602
Yokohama_International_Port_Terminal,Farshid Moussavi and Alejandro Zaera-Polo,2002,"Kanagawa, Yokohama",Japan,Asia,35.45125933,139.6473941
Leaning_Tower_of_Pisa,"Diotisalvi, Guglielmo",1372,"Piazza del Duomo, Pisa PI",Italy,Europe,43.72316133,10.39668283
Taj_Mahal,Ustad Ahmad Lahouri,1648,Agra,India,Asia,27.17535476,78.04207782
Colosseum,unknown,80 AD,Roma RM,Italy,Europe,41.8904418,12.4922309
Pantheon,unknown,125 AD,Roma RM,Italy,Europe,41.89915205,12.47691274
Buckingham_Palace,"John Nash, William Winde, Thomas Cubitt, Aston Webb, Edward Blore",1705,London,United Kingdom,Europe,51.50147752,-0.1418470863
Hagia_Sophia,"Isidore of Miletus, Anthemius of Tralles",537 AD,İstanbul,Turkey,Europe,41.00876109,28.98026083
Space_Needle,"John “Jack” Graham, Jr. fresh",1962,"Seattle, WA",United States,Europe,47.62067984,-122.3493418
La_Sagrada_Familia,Antoni Gaudí,2010,Barcelona,Spain,Europe,41.40384716,2.174377256
Cathedral_of_Brasilia,Oscar Niemeyer ,1970,Brasília,Brazil,South America,-15.79813542,-47.87557159
The_White_House,James Hoban,1792,"Washington, DC",United States,North America,38.89791008,-77.03658345
Empire_State_Building,"William F. Lamb, Arthur Loomis Harmon, Yasuo Matsui, Gregory Johnson",1930,"New York, NY",United States,North America,40.74861117,-73.98569659
Lloyd's_Building,"Richard Rogers, Mike Davies, Ivan Harbour",1978,London,United Kingdom,Europe,51.5128575,-0.08228543052
Petronas_Twin_Towers,César Pelli,1993,Kuala Lumpur,Malaysia,Asia,3.158227711,101.7117923
Potala_Palace,"5th Dalai Lama, Songtsen Gampo",1649,Tibet,China,Asia,29.65575524,91.11852555
The_Moscow_Kremlin,"Marcus Ruffus, Petrus Antonius Solarius",1495,Moscow,Russia,Europe,55.7521863,37.6174994
Stonehenge,unknown,Bronze Age,Salisbury SP4 7DE,United Kingdom,Europe,51.17968152,-1.826199222
Cologne_Cathedral,"Master Gerhard, Ernst Friedrich Zwirner",1322,Köln,Germany,Europe,50.94142035,6.958259941
Dome_of_the_Rock,"Raja ibn Haywa, Yazid Ibn Salam",1023,Jerusalem,Israel,Asia,31.77817277,35.23545992
Chrysler_Building,William Van Alen,1930,"New York City, NY",United States,North America,40.75175895,-73.97544836
Burj_Khalifa,"Adrian Smith, George J. Efstathiou, Marshall Strabala",2010,Dubai,United Arab Emirates,Asia,25.19742027,55.27440858
Maison_Citröhan,Le Corbusier,1927,Paris,Germany,Europe,48.85200923,2.2654375
Villa_Mairea,Alvar Aalto,1939,Noormarkku,Finland,Europe,61.59753577,21.8744043
Falling_Water,Frank Lloyd Wright,1964,"Mill Run, PA",United States,North America,39.90644437,-79.46780912
Utalitarian_Church,Frank Lloyd Wright,1951,"Chicago, IL",United States,North America,43.07573635,-89.43541336
Indian_Institute_of_Management_A,Louis I. Kahn,1974,"Ahmedabad, Gujarat",India,Asia,23.03321387,72.53282394
Nationa__Assembly_in_Dhaka,Louis I. Kahn,1982,Dhaka,Bangladesh,Asia,23.76268201,90.37852745
The_Trenton_Bath,Louis I. Kahn,1955,"Ewing Township, NJ",United States,North America,40.25984557,-74.79879376
Philip_Exter_Library,Louis I. Kahn,1972,"Exeter, NH",United States,North America,42.98126706,-70.95172262
Fisher_House,Louis I. Kahn,1964,"Hatboro, PA",United States,North America,40.1670931,-75.1083966
Margaret_Esherick_House,Louis I. Kahn,1959,"Philadelphia, PA",United States,North America,40.11152395,-75.21060934
Neue_Nationalgalerie,Ludwig Mies van der Rohe,1968,Berlin,Germany,Europe,52.50711865,13.36764691
860-880_Lake_Shore_Drive,Ludwig Mies van der Rohe,1949,"Chicago, IL",United States,North America,41.89924899,-87.61884501
Voya_Financial_20_Washington,Minoru Yamasaki and Associates,1965,"Minneapolis, MN",United States,North America,44.98247295,-93.2668441
CITIC_Tower(China Zun),Kohn Pedersen Fox,2018,Beijing,China,Asia,39.91284102,116.4637365
Beijing_National_Stadium,Herzog and de Meuron,2008,Beijing,China,Asia,39.99310747,116.3965005
CCTV_Headquarters,"Rem Koolhaas (OMA), Ole Scheeren",2012,Beijing,China,Asia,39.91543143,116.4642097
Jin_Mao_Tower,Adrian Smith,1999,Shanghai,China,Asia,31.23569182,121.5057491
Himalayas_Center,Arata Isozaki,2012,Shanghai,China,Asia,31.21038378,121.5619361
First_Unity_Temple,Frank Lloyd Wright,1908,"Oak Park, IL",United States,North America,41.88848405,-87.7966513
Shanghai_World_Financial_Center,Kohn Pedersen Fox,2008,Shanghai,China,Asia,31.23464115,121.5078587
TAIPEI_101,C.Y. Lee & Partners,2004,Taipei,Taiwan,Asia,25.03410543,121.5645883
The_Canton_Tower,"Mark Hemel, Barbara Kuit",2010,Guangzhou,China,Asia,23.10807236,113.3404147
Oriental_Pearl_TV_Tower,"Jia Huan Cheng, Zhang Xiulin, Lin Benlin",1994,Shanghai,China,Asia,31.23997325,121.4998411
Harbin_Grand_Theatre,Ma Yansong,2015,Harbin,China,Asia,45.80669841,126.5776911
Tiantan(Temple_of_Heaven),unknown,1420,Beijing,China,Asia,39.88143767,116.4191967
Foridden_City,Ruan An,1420,Beijing,China,Asia,39.91713975,116.3906705
Eiffel_Tower,"Stephen Sauvestre, Maurice Koechlin, Émile Nouguier",1889,Paris,France,Europe,48.85849714,2.294481298
Hanging Temple,unknown,491 AD,"Hunyuan County, Datong",China,Asia,39.65949555,113.7120585
Itsukushima Shrine,unknown,593 AD,"Miyajimacho, Hatsukaichi, Hiroshima",Japan,Asia,34.29610481,132.3198929
Kiyomizu-dera,unknown,778 AD,"Higashiyama Ward, Kyoto",Japan,Asia,34.99500549,135.7849927
Arc de Triomphe,"Jean Chalgrin, Jean-Arnaud Raymond",1836,Paris,France,Europe,48.87399632,2.295038227
Tōdai-ji,Emperor Shōmu,728 AD,"Zoshicho, Nara",Japan,Asia,34.68915269,135.8398265
Big_Ben,"Augustus Pugin, Charles Barry",1859,London,United Kingdom,Europe,51.50085608,-0.1245824863
Weissenhofmuseum im Haus,Le Corbusier,1927,Stuttgart,,,48.80007549,9.1778249
Saint_Basil's_Cathedral,"ostnik Yakovlev, Ivan Barma",1561,"Red Square, Moscow",Russia,Asia,55.7526376,37.62312971
Notre_Dame_de_Paris,"Pierre de Montreuil, Jean-Baptiste-Antoine Lassus",1345,Paris,France,Europe,48.85315879,2.349955742
San_Francisco_Art_Museum,Mario Botta,1935,"San Francisco, CA",United States,North America,37.78589624,-122.4010615
Burj_Al_Arab,Tom Wright,1994,Dubai,Emirates,Asia,25.14134603,55.18524116
Casa_Rotonda_Stabio,Mario Botta,1982,Stabio,Switzerland,Europe,45.85486743,8.93291271
Church_of_God_the_Merciful_Father,Richard Meier,2003,Roma RM,Italy,Europe,41.88252905,12.58560587
Chiesa_Seriate,Mario Botta,2004,Seriate BG,Italy,Europe,45.68001796,9.710181571
Church_of_Santo_Volto,Mario Botta,2006,Torino TO,Italy,Europe,45.09342811,7.661422327
Deutsches_Historisches_Museum,I.M.Pei,1987,Berlin,Germany,North America,52.51826287,13.39667095
East_Building_National_Gallery_of_Art,I.M.Pei,1978,"Washington, DC",United States,North America,38.89142205,-77.01708529
Angkor_Wat,King Suryavarman II,Early 12th Century,Krong Siem Reap,Cambodia,Asia,13.41267801,103.8669321
Bank_of_China_Tower,I.M.Pei,1990,Hong Kong,China,Asia,22.27955248,114.1615038
Great_Sphinx_of_Giza,unknown,2500 B.C,Giza Governorate,Egypt,Africa,29.97545456,31.13753521
Acropolis_of_Athens,unknown,5th Century B.C,Athens,Greece,Europe,37.97172681,23.72584576
Machu_Picchu,unknown,1450 AD,Andes Mountains,Peru,South America,-13.1629218,-72.54493072
Green_Building_MIT,I.M.Pei,1964,"Cambridge, MA",United States,North America,42.3605149,-71.08926116
Moai,unknown,1650 AD,"Easter Island, Valparaíso",Chile,South America,-24.29378103,-108.4515929
Douglas_House,Richard Meier,1973,"Harbor Springs, MI",United States,North America,45.50138155,-85.09786573
Porto_House（Casa_da_Musica）,Rem Koolhaas,2005,Porto,Portugal,Europe,41.15907484,-8.630642358
Thorncrown_Chapel, E. Fay Jones,1980,"Eureka Springs, AR",United States,North America,36.41648866,-93.77267785
Pyramid,unknown,2490 B.C,Giza Governorate,Egypt,Africa,30.09336595,31.15068133
Chichen_Itza,unknown,900 AD,Yucatan,Mexico,North America,20.68441537,-88.56779333
Hilversum_Town_Hall,Willem Marinus Dudok,1928,JE Hilversum,Neitherland,Europe,52.22919952,5.16919733
Hungarian_Parliament_Building,Imre Steindl,1904,Budapest,Hungary,Europe,47.50735289,19.04565827
Zollverein_School_of_Management_and_Design,SANAA,2003,Essen,Germany,Europe,51.48779499,7.044625085
21st_Century_Museum_of_Contemporary_Art_Kanazawa,SANAA,2004,"Hirosaka, Kanazawa, Ishikawa",Japan,Europe,36.56104403,136.6585682
Sultan_Ahmed_Mosque,Sedefkar Mehmed Agha,1916,İstanbul,Turkey,Europe,41.00553912,28.9768138
Louvre_Pyramid,I.M.Pei,1989,Paris,France,Europe,48.86115465,2.335815383
The_Therme_Vals,Peter Zumthor,1996,Vals Valley,Switzerland,Europe,46.62253687,9.181162602
Saint_Benedict_Chapel,Peter Zumthor,1988,Sumvitg,Switzerland,Europe,46.73504236,8.939083471
House_II,Peter Eisenman,1970,"Hardwick, VT",United States,North America,44.53229242,-72.399254
Merlion_Singapore,Alec Fraser-Brunner,2002,Singapore,Singapore,Asia,1.286966848,103.854534
Tadao_Ando_4x4,Tado Ando,2004,"Tarumi-ku, Kobe, Hyogo",Japan,Asia,34.64216332,135.0217681
Valley_of_the_Kings,unknown,11th Century BC,Luxor Governorate,Egypt,Africa,25.74060855,32.60140057
Kwame_Nkrumah_Mausoleum,Don Arthur,1992,Accra,Ghana,Africa,5.545194826,-0.203052545
Nihonbashi_House,Tado Ando,1994,"Setagaya City, Tokyo",Japan,Asia,35.65544705,139.6639696
Church_of_the_Light,Tado Ando,1989,"Kitakasugaoka, Ibaraki, Osaka",Japan,Asia,34.81869633,135.5371373
Eychaner_Lee_House,Tado Ando,1997,"Takanawa, Shinagawa, Tokyo",Japan,Asia,41.92893982,-87.64528656
Hassan_II_Mosque,Michel Pinseau,1993,"Bd de la Corniche, Casablanca",Morocco,Africa,33.6086959,-7.632799073
Row_House_in_Sumiyoshi,Tadao Ando,1976,"Sumiyoshi Ward, Osaka",Japan,Asia,34.6111301,135.4922353
Memorial_du_Martyr,"Bachir Yelles, Marian Konieczny",1982,"Chemin Omar Kechkar, El Madania",Algeria,Africa,36.74578783,3.069841871
Basilique_Sainte,Louis-Napoléon Audet,2010,Brazzaville,Congo,Africa,-4.268294518,15.284135
Weissenhof_Estate,Le Corbusier,1927,Stuttgart,Germany,Europe,48.80087055,9.177157314
Villa_Stein_de_Monzie,Le Corbusier,1927,Vaucresson,France,Europe,48.84713967,2.177278715
The_Curutchet_House,Le Corbusier,1955,Provincia de Buenos Aires,Argentina,South America,-34.91108944,-57.94183202
Fogo_Island_Inn,Todd Saunders,2013,Joe Batt's Arm,Canada,North America,49.74562213,-54.18333864
CN_Tower,John Andrews,1976,Toronto,Canada,North America,43.64276028,-79.38708899
Legislative_Assembly_of_British_Columbia,Francis Rattenbury,1898,"Victoria, BC",Canada,North America,48.41990597,-123.3702154
Fairmont_Le_Chateau_Frontenac,Bruce Price,1893,Québec,Canada,North America,46.81211862,-71.20520767
Villa_Baizeau,Le Corbusier,1928,Tunis,Tunisia,Africa,36.85885224,10.33908562
Koshino_House,Tadao Ando,1981,"Ashiya, Hyogo",Japan,Asia,34.77412285,135.2850476
The_Church_of_the_Light ,Tadao Ando,1989,"Ibaraki, Osaka",Japan,Asia,34.81874037,135.5371695
Toyo_Ito_White_U_House,Tadao Ando,1976,"Nakano-Ku, Tokyo",Japan,Asia,35.69517213,139.6756078
Australian_War_Memorial,"Emil Sodersten, John Crust",1941,Treloar Cres,Australia,Australia,-35.28096907,149.1484112
Church_of_Water,Tadao Ando,1988,"Tomamu, Shimukappu, Hokkaido",Japan,Asia,43.06395852,142.6262197
Takahashi_City_Nariwa_Museum,Tadao Ando,1953,"Takahashi, Okayama",Japan,Asia,34.78113166,133.5366456
Parliament_House,"Edwin Lutyens, Herbert Baker",1927,"New Delhi, Delhi ",India,Asia,28.61746211,77.20812691
Modern_Art_Museum_of_Fort_Worth,Tadao Ando,2002,"Fort Worth, TX",United States,North America,32.7493788,-97.36327502
Sainte_Marie_de_La_Tourette,Le Corbusier,1957,Rte de la Tourette,France,Europe,45.81948678,4.622709775
Palais_des_Filateurs,Le Corbusier,1951,Ahmedabad,India,Asia,23.03274792,72.57089157
Walsh_House,Glenn Murcutt,2005,Bingie NSW 2537,Australia,Australia,-35.9211482,150.1127334
Magney_house,Glenn Murcutt,1984,Bingie NSW 2537,Australia,Australia,-36.01299543,150.1519512
Walden7,"Ricardo Bofill, Anna Bofill Levi",1975,"Sant Just Desvern, Barcelona",Spain,Europe,41.38041958,2.067724211
Lac_de_la_sourderie,Ricardo Bofill,1984,Montigny-le-Bretonneux,France,Europe,48.76696704,2.046286042
Espaces_dAbraxas,Ricardo Bofill,1983,Paris,France,Europe,48.84010364,2.542285998
Dancing_House,"Vlado Milunić, ‎Frank Gehry",1996,Prague,Czech Republic,Europe,50.07554768,14.41403922
Gateway_Arch,Eero Saarinen,1963,"St. Louis, MO",United States,North America,38.62488376,-90.18474412
Niterói_Contemporary_Art_Museum,Oscar Niemeyer,1996,"Niterói, Rio de Janeiro",Brazil,South America,-22.90739106,-43.12592065
Lotus_Temple,Fariborz Sahba,1986,New Delhi,India,Asia,28.55368046,77.25883713
Harvard_Gund_Hall,John Andrews,1972,"Cambridge, MA",United States,North America,42.37575221,-71.11365406
MIT_Stata_Center,Frank Gehry,2004,"Cambridge, MA",United States,North America,42.36179974,-71.0906355
Disney_Concert_Hall,Frank Gehry,2003,"Los Angeles, CA",United States,North America,34.05544433,-118.2498236
Westminster_Abbey," Ptolemy Dean, George Gilbert Scott",1269,London,United Kingdom,Europe,51.49945501,-0.1272744931
Dresden_Frauenkirche,George Bähr,2005,"Dresden, Saxony",Germany,Europe,51.05200152,13.74156451
41_Cooper_Square,Morphosis (Thom Mayne),2009,"New York City, NY",United States,North America,40.72933364,-73.99030172
Simmons_Hall,Steven Holl,2002,"Cambridge, MA",United States,North America,42.3575215,-71.10081436
Milstein_Hall,"OMA (Shohei Shigematsu, Rem Koolhaas)",2011,"Ithaca, NY",United States,North America,42.45148745,-76.48254687
Golden_Gate_Bridge,Joseph Baermann Strauss,1937,"San Francisco, California",United States,North America,37.82011503,-122.4782444
Gwanghwamun,Unknown,1395,"Sejongno, Jongno-gu, Seoul",South Korea,Asia,37.57631541,126.9768009
Himeji_Castle,Unknown,1333,"Himeji, Hyogo",Japan,Asia,34.83966912,134.6938618
Borobudur,Gunadharma,825 AD,"Kabupaten Magelang, Jawa Tengah",Indonesia,Asia,-7.604199646,110.2035868
Kinkaku-ji,Ashikaga Yoshimitsu,1955,"Kita Ward, Kyoto",Japan,Asia,35.03961594,135.7292002